[

    {
        "name": "Start",
        "marks": [
            {
                "name": "Start (1)",
                "lat": 51.461163,
                "lng": -3.164802
            },
            {
                "name": "Start (2)",
                "lat": 51.460262,
                "lng": -3.1621099999999998
            }
        ]
    },
    {
        "name": "Red",
        "marks": [
            {
                "name": "Red",
                "lat": 51.454012999999996,
                "lng": -3.168643
            }
        ]
    },
    {
        "name": "White",
        "marks": [
            {
                "name": "White (1)",
                "lat": 51.453719899999996,
                "lng": -3.164758
            },
            {
                "name": "White (2)",
                "lat": 51.454581999999995,
                "lng": -3.164605
            }
        ]
    },
    {
        "name": "Red",
        "marks": [
            {
                "name": "Red",
                "lat": 51.454012999999996,
                "lng": -3.168643
            }
        ]
    },
    {
        "name": "White",
        "marks": [
            {
                "name": "White (1)",
                "lat": 51.453719899999996,
                "lng": -3.164758
            },
            {
                "name": "White (2)",
                "lat": 51.454581999999995,
                "lng": -3.164605
            }
        ]
    },
    {
        "name": "Green",
        "marks": [
            {
                "name": "Green",
                "lat": 51.456981999999996,
                "lng": -3.166352
            }
        ]
    },
    {
        "name": "Yellow",
        "marks": [
            {
                "name": "Yellow",
                "lat": 51.458275,
                "lng": -3.163478
            }
        ]
    },
    {
        "name": "Green",
        "marks": [
            {
                "name": "Green",
                "lat": 51.456981999999996,
                "lng": -3.166352
            }
        ]
    },
    {
        "name": "Wales",
        "marks": [
            {
                "name": "Wales",
                "lat": 51.461697,
                "lng": -3.163815
            }
        ]
    },
    {
        "name": "Black Conical",
        "marks": [
            {
                "name": "Black Conical",
                "lat": 51.459857899999996,
                "lng": -3.1632919999999998
            }
        ]
    },
    {
        "name": "Finish Old",
        "marks": [
            {
                "name": "Finish Old (1)",
                "lat": 51.461166999999996,
                "lng": -3.164787
            },
            {
                "name": "Finish Old (2)",
                "lat": 51.461231999999995,
                "lng": -3.162228
            }
        ]
    }

]